[{
    "id": 1,
    "place": "Bedok",
    "rent": 288,
    "lat": 1.335007,
    "lng": 103.914533,
    "url": "https:\/\/images.unsplash.com\/photo-1545083036-b175dd155a1d?ixlib=rb-1.2.1&ixid=eyJhcHBfaWQiOjEyMDd9&auto=format&fit=crop&w=1049&q=80",
    "price": 4000,
    "currency": "SGD"
}, {
    "id": 2,
    "place": "Changi Beach",
    "rent": 588,
    "lat": 1.338770,
    "lng": 103.918944,
    "url": "https:\/\/images.unsplash.com\/photo-1521782462922-9318be1cfd04?ixlib=rb-1.2.1&ixid=eyJhcHBfaWQiOjEyMDd9&auto=format&fit=crop&w=1055&q=80",
    "price": 3900,
    "currency": "SGD"
}, {
    "id": 3,
    "place": "Kaki Bukit",
    "rent": 188,
    "lat": 1.339049,
    "lng": 103.916841,
    "url": "https:\/\/images.unsplash.com\/photo-1544207240-42895ede7c09?ixlib=rb-1.2.1&ixid=eyJhcHBfaWQiOjEyMDd9&auto=format&fit=crop&w=1050&q=80",
    "price": 4800,
    "currency": "SGD"
}, {
    "id": 4,
    "place": "Marina Bay Sands",
    "rent": 300,
    "lat": 1.283469,
    "lng": 103.860416,
    "url": "https:\/\/images.unsplash.com\/photo-1544207240-42895ede7c09?ixlib=rb-1.2.1&ixid=eyJhcHBfaWQiOjEyMDd9&auto=format&fit=crop&w=1050&q=80",
    "price": 5800,
    "currency": "SGD"
}, {
    "id": 5,
    "place": "Sunset Way",
    "rent": 200,
    "lat": 1.327887,
    "lng": 103.766800,
    "url": "https:\/\/images.unsplash.com\/photo-1528214824466-ad106a633783?ixlib=rb-1.2.1&ixid=eyJhcHBfaWQiOjEyMDd9&auto=format&fit=crop&w=1050&q=80",
    "price": 1800,
    "currency": "SGD"
}, {
    "id": 6,
    "place": "Clementi",
    "rent": 300,
    "lat": 1.317963,
    "lng": 103.767018,
    "url": "https:\/\/images.unsplash.com\/photo-1438954936179-786078772609?ixlib=rb-1.2.1&ixid=eyJhcHBfaWQiOjEyMDd9&auto=format&fit=crop&w=1201&q=80",
    "price": 200,
    "currency": "SGD"
}]